[
    {
        "clave": "4",
        "color": "#fd9322",
        "latitude": -8.8159,
        "name": "Angola",
        "id": "AO",
        "value": "1",
        "longitude": 13.2306
    },
    {
        "clave": "9",
        "color": "#fd9322",
        "latitude": -34.6118,
        "name": "Argentina",
        "id": "AR",
        "value": "625",
        "longitude": -63.4173
    },
    {
        "clave": "19",
        "color": "#fd9322",
        "latitude": -19.0421,
        "name": "Estado Plurinacional de Bolivia",
        "id": "BO",
        "value": "22",
        "longitude": -65.2559
    },
    {
        "clave": "21",
        "color": "#fd9322",
        "latitude": -15.7801,
        "name": "Brasil",
        "id": "BR",
        "value": "3636",
        "longitude": -47.9292
    },
    {
        "clave": "25",
        "color": "#fd9322",
        "latitude": 61.0666922,
        "name": "Canadá",
        "id": "CA",
        "value": "3",
        "longitude": -107.9917071
    },
    {
        "clave": "26",
        "color": "#fd9322",
        "latitude": -33.4691,
        "name": "Chile",
        "id": "CL",
        "value": "480",
        "longitude": -70.642
    },
    {
        "clave": "30",
        "color": "#fd9322",
        "latitude": 4.6473,
        "name": "Colombia",
        "id": "CO",
        "value": "1921",
        "longitude": -74.0962
    },
    {
        "clave": "33",
        "color": "#fd9322",
        "latitude": 9.9402,
        "name": "Costa Rica",
        "id": "CR",
        "value": "347",
        "longitude": -84.1002
    },
    {
        "clave": "35",
        "color": "#fd9322",
        "latitude": 23.1333,
        "name": "Cuba",
        "id": "CU",
        "value": "249",
        "longitude": -82.3667
    },
    {
        "clave": "37",
        "color": "#fd9322",
        "latitude": -0.2295,
        "name": "Ecuador",
        "id": "EC",
        "value": "145",
        "longitude": -78.5243
    },
    {
        "clave": "42",
        "color": "#fd9322",
        "latitude": 40.4167,
        "name": "España",
        "id": "ES",
        "value": "1211",
        "longitude": -3.7033
    },
    {
        "clave": "43",
        "color": "#fd9322",
        "latitude": 39.7837304,
        "name": "Estados Unidos de América",
        "id": "US",
        "value": "36",
        "longitude": -100.4458825
    },
    {
        "clave": "60",
        "color": "#fd9322",
        "latitude": 28.6353,
        "name": "India",
        "id": "IN",
        "value": "3",
        "longitude": 77.225
    },
    {
        "clave": "67",
        "color": "#fd9322",
        "latitude": 42.6384261,
        "name": "Italia",
        "id": "IT",
        "value": "25",
        "longitude": 12.674297
    },
    {
        "clave": "73",
        "color": "#fd9322",
        "latitude": 19.4326009,
        "name": "México",
        "id": "MX",
        "value": "1802",
        "longitude": -99.1333416
    },
    {
        "clave": "79",
        "color": "#fd9322",
        "latitude": 8.9943,
        "name": "Panamá",
        "id": "PA",
        "value": "9",
        "longitude": -79.5188
    },
    {
        "clave": "80",
        "color": "#fd9322",
        "latitude": -25.3005,
        "name": "Paraguay",
        "id": "PY",
        "value": "3",
        "longitude": -57.6362
    },
    {
        "clave": "81",
        "color": "#fd9322",
        "latitude": -12.0931,
        "name": "Perú",
        "id": "PE",
        "value": "203",
        "longitude": -74.0465
    },
    {
        "clave": "82",
        "color": "#fd9322",
        "latitude": 52.2297,
        "name": "Polonia",
        "id": "PL",
        "value": "15",
        "longitude": 21.0122
    },
    {
        "clave": "83",
        "color": "#fd9322",
        "latitude": 40.0332629,
        "name": "Portugal",
        "id": "PT",
        "value": "189",
        "longitude": -7.8896263
    },
    {
        "clave": "85",
        "color": "#fd9322",
        "latitude": 18.479,
        "name": "República Dominicana",
        "id": "DO",
        "value": "12",
        "longitude": -69.8908
    },
    {
        "clave": "89",
        "color": "#fd9322",
        "latitude": 46.948,
        "name": "Suiza",
        "id": "CH",
        "value": "1",
        "longitude": 7.4481
    },
    {
        "clave": "93",
        "color": "#fd9322",
        "latitude": -32.8941,
        "name": "Uruguay",
        "id": "UY",
        "value": "76",
        "longitude": -56.0675
    },
    {
        "clave": "94",
        "color": "#fd9322",
        "latitude": 7.4961,
        "name": "República Bolivariana de Venezuela",
        "id": "VE",
        "value": "520",
        "longitude": -63.8983
    },
    {
        "clave": "97",
        "color": "#fd9322",
        "latitude": 18.45,
        "name": "Puerto Rico",
        "id": "PR",
        "value": "24",
        "longitude": -66.0667
    },
    {
        "clave": "152",
        "color": "#fd9322",
        "latitude": 54.6896,
        "name": "Lituania \n 1",
        "id": "LT",
        "value": "14",
        "longitude": 25.2799,
        "text": "12"
    }
]